{"type":"FeatureCollection","features":[{"type":"Feature","properties":{"code":"aae-1-africa","name":"AAE-1 (Africa)","featureType":"cable"},"geometry":{"type":"LineString","coordinates":[[43.15,11.59],[45.03,12.79],[45.07,7.03],[45.34,2.05],[42.58,-0.72],[39.66,-4.04],[39.28,-6.79]]}},{"type":"Feature","properties":{"code":"aae-1-africa","name":"Djibouti","featureType":"landing-point"},"geometry":{"type":"Point","coordinates":[43.15,11.59]}},{"type":"Feature","properties":{"code":"aae-1-africa","name":"Aden","featureType":"landing-point"},"geometry":{"type":"Point","coordinates":[45.03,12.79]}},{"type":"Feature","properties":{"code":"aae-1-africa","name":"Mogadishu","featureType":"landing-point"},"geometry":{"type":"Point","coordinates":[45.34,2.05]}},{"type":"Feature","properties":{"code":"aae-1-africa","name":"Mombasa","featureType":"landing-point"},"geometry":{"type":"Point","coordinates":[39.66,-4.04]}},{"type":"Feature","properties":{"code":"aae-1-africa","name":"Dar es Salaam","featureType":"landing-point"},"geometry":{"type":"Point","coordinates":[39.28,-6.79]}}]}
