{"type":"FeatureCollection","features":[{"type":"Feature","properties":{"code":"adc-asia-direct-cable","name":"ADC (Asia Direct Cable)","featureType":"cable"},"geometry":{"type":"LineString","coordinates":[[103.85,1.29],[106.93,7.08],[110.52,14.6],[114.17,22.28],[122.88,27.24],[131.44,31.7],[139.84,35.63],[133.55,28.62],[127.37,21.94],[120.98,14.6],[113.42,11.34],[106.66,10.76],[111.35,16],[116.68,23.35]]}},{"type":"Feature","properties":{"code":"adc-asia-direct-cable","name":"Singapore","featureType":"landing-point"},"geometry":{"type":"Point","coordinates":[103.85,1.29]}},{"type":"Feature","properties":{"code":"adc-asia-direct-cable","name":"Hong Kong","featureType":"landing-point"},"geometry":{"type":"Point","coordinates":[114.17,22.28]}},{"type":"Feature","properties":{"code":"adc-asia-direct-cable","name":"Tokyo","featureType":"landing-point"},"geometry":{"type":"Point","coordinates":[139.84,35.63]}},{"type":"Feature","properties":{"code":"adc-asia-direct-cable","name":"Manila","featureType":"landing-point"},"geometry":{"type":"Point","coordinates":[120.98,14.6]}},{"type":"Feature","properties":{"code":"adc-asia-direct-cable","name":"Ho Chi Minh City","featureType":"landing-point"},"geometry":{"type":"Point","coordinates":[106.66,10.76]}},{"type":"Feature","properties":{"code":"adc-asia-direct-cable","name":"Shantou","featureType":"landing-point"},"geometry":{"type":"Point","coordinates":[116.68,23.35]}}]}
