{"type":"FeatureCollection","features":[{"type":"Feature","properties":{"code":"seamewe-3-asia","name":"SeaMeWe-3 (Asia)","featureType":"cable"},"geometry":{"type":"LineString","coordinates":[[103.85,1.29],[105.1,-3.28],[106.85,-6.21],[109.58,-15.69],[113.18,-22.28],[115.86,-31.95],[108.6,-24.36],[101.44,-16.43],[94.55,-7.61],[86.91,-1.29],[79.84,6.93],[76.66,14.02],[72.88,19.08],[74.49,14.24],[76.27,9.97],[72.02,18.74],[66.98,24.85]]}},{"type":"Feature","properties":{"code":"seamewe-3-asia","name":"Singapore","featureType":"landing-point"},"geometry":{"type":"Point","coordinates":[103.85,1.29]}},{"type":"Feature","properties":{"code":"seamewe-3-asia","name":"Jakarta","featureType":"landing-point"},"geometry":{"type":"Point","coordinates":[106.85,-6.21]}},{"type":"Feature","properties":{"code":"seamewe-3-asia","name":"Perth","featureType":"landing-point"},"geometry":{"type":"Point","coordinates":[115.86,-31.95]}},{"type":"Feature","properties":{"code":"seamewe-3-asia","name":"Colombo","featureType":"landing-point"},"geometry":{"type":"Point","coordinates":[79.84,6.93]}},{"type":"Feature","properties":{"code":"seamewe-3-asia","name":"Mumbai","featureType":"landing-point"},"geometry":{"type":"Point","coordinates":[72.88,19.08]}},{"type":"Feature","properties":{"code":"seamewe-3-asia","name":"Cochin","featureType":"landing-point"},"geometry":{"type":"Point","coordinates":[76.27,9.97]}},{"type":"Feature","properties":{"code":"seamewe-3-asia","name":"Karachi","featureType":"landing-point"},"geometry":{"type":"Point","coordinates":[66.98,24.85]}}]}
