{"type":"FeatureCollection","features":[{"type":"Feature","properties":{"code":"deep-blue-cable","name":"Deep Blue Cable","featureType":"cable"},"geometry":{"type":"LineString","coordinates":[[-81.39,30.33],[-75.91,23.57],[-69.93,18.47],[-66.07,18.47],[-64.7,17.75],[-64.62,18.43],[-63.05,18.03],[-61.28,15.73],[-59.61,13.1],[-61.52,10.65]]}},{"type":"Feature","properties":{"code":"deep-blue-cable","name":"Jacksonville","featureType":"landing-point"},"geometry":{"type":"Point","coordinates":[-81.39,30.33]}},{"type":"Feature","properties":{"code":"deep-blue-cable","name":"Santo Domingo","featureType":"landing-point"},"geometry":{"type":"Point","coordinates":[-69.93,18.47]}},{"type":"Feature","properties":{"code":"deep-blue-cable","name":"San Juan","featureType":"landing-point"},"geometry":{"type":"Point","coordinates":[-66.07,18.47]}},{"type":"Feature","properties":{"code":"deep-blue-cable","name":"Christiansted","featureType":"landing-point"},"geometry":{"type":"Point","coordinates":[-64.7,17.75]}},{"type":"Feature","properties":{"code":"deep-blue-cable","name":"Tortola","featureType":"landing-point"},"geometry":{"type":"Point","coordinates":[-64.62,18.43]}},{"type":"Feature","properties":{"code":"deep-blue-cable","name":"Philipsburg","featureType":"landing-point"},"geometry":{"type":"Point","coordinates":[-63.05,18.03]}},{"type":"Feature","properties":{"code":"deep-blue-cable","name":"Bridgetown","featureType":"landing-point"},"geometry":{"type":"Point","coordinates":[-59.61,13.1]}},{"type":"Feature","properties":{"code":"deep-blue-cable","name":"Port of Spain","featureType":"landing-point"},"geometry":{"type":"Point","coordinates":[-61.52,10.65]}}]}
