{"type":"FeatureCollection","features":[{"type":"Feature","properties":{"code":"eig-europe-india-gateway","name":"EIG (Europe India Gateway)","featureType":"cable"},"geometry":{"type":"LineString","coordinates":[[0.05,51.51],[-4.37,45.7],[-9.14,38.72],[-1.92,40.9],[5.37,43.3],[8.93,44.41],[16.29,41.21],[23.03,35.96],[29.92,31.2],[34.76,27.05],[39.17,21.49],[41.33,17.12],[43.15,11.59],[53.13,14.32],[63.02,16.75],[72.88,19.08]]}},{"type":"Feature","properties":{"code":"eig-europe-india-gateway","name":"London","featureType":"landing-point"},"geometry":{"type":"Point","coordinates":[0.05,51.51]}},{"type":"Feature","properties":{"code":"eig-europe-india-gateway","name":"Lisbon","featureType":"landing-point"},"geometry":{"type":"Point","coordinates":[-9.14,38.72]}},{"type":"Feature","properties":{"code":"eig-europe-india-gateway","name":"Marseille","featureType":"landing-point"},"geometry":{"type":"Point","coordinates":[5.37,43.3]}},{"type":"Feature","properties":{"code":"eig-europe-india-gateway","name":"Genoa","featureType":"landing-point"},"geometry":{"type":"Point","coordinates":[8.93,44.41]}},{"type":"Feature","properties":{"code":"eig-europe-india-gateway","name":"Alexandria","featureType":"landing-point"},"geometry":{"type":"Point","coordinates":[29.92,31.2]}},{"type":"Feature","properties":{"code":"eig-europe-india-gateway","name":"Jeddah","featureType":"landing-point"},"geometry":{"type":"Point","coordinates":[39.17,21.49]}},{"type":"Feature","properties":{"code":"eig-europe-india-gateway","name":"Djibouti","featureType":"landing-point"},"geometry":{"type":"Point","coordinates":[43.15,11.59]}},{"type":"Feature","properties":{"code":"eig-europe-india-gateway","name":"Mumbai","featureType":"landing-point"},"geometry":{"type":"Point","coordinates":[72.88,19.08]}}]}
