{"type":"FeatureCollection","features":[{"type":"Feature","properties":{"code":"iox-indian-ocean-xpress","name":"IOX (Indian Ocean Xpress)","featureType":"cable"},"geometry":{"type":"LineString","coordinates":[[72.88,19.08],[76.19,12.44],[79.84,6.93],[71.4,2.04],[63.48,-1.12],[55.45,-4.62],[56.67,-11.76],[57.5,-20.16],[55.45,-20.88],[47.51,-23.22],[39.31,-26.4],[31.03,-29.87]]}},{"type":"Feature","properties":{"code":"iox-indian-ocean-xpress","name":"Mumbai","featureType":"landing-point"},"geometry":{"type":"Point","coordinates":[72.88,19.08]}},{"type":"Feature","properties":{"code":"iox-indian-ocean-xpress","name":"Colombo","featureType":"landing-point"},"geometry":{"type":"Point","coordinates":[79.84,6.93]}},{"type":"Feature","properties":{"code":"iox-indian-ocean-xpress","name":"Victoria","featureType":"landing-point"},"geometry":{"type":"Point","coordinates":[55.45,-4.62]}},{"type":"Feature","properties":{"code":"iox-indian-ocean-xpress","name":"Port Louis","featureType":"landing-point"},"geometry":{"type":"Point","coordinates":[57.5,-20.16]}},{"type":"Feature","properties":{"code":"iox-indian-ocean-xpress","name":"Saint-Denis","featureType":"landing-point"},"geometry":{"type":"Point","coordinates":[55.45,-20.88]}},{"type":"Feature","properties":{"code":"iox-indian-ocean-xpress","name":"Durban","featureType":"landing-point"},"geometry":{"type":"Point","coordinates":[31.03,-29.87]}}]}
