{"type":"FeatureCollection","features":[{"type":"Feature","properties":{"code":"seacom","name":"SEACOM","featureType":"cable"},"geometry":{"type":"LineString","coordinates":[[5.37,43.3],[19.08,39.16],[31.95,32.21],[45.67,28.08],[59.32,23.72],[72.88,19.08],[61.97,11.93],[50.51,2.91],[39.66,-4.04],[39.28,-6.79],[36.71,-14.3],[35.02,-18.87],[32.57,-25.97],[31.75,-28.95]]}},{"type":"Feature","properties":{"code":"seacom","name":"Marseille","featureType":"landing-point"},"geometry":{"type":"Point","coordinates":[5.37,43.3]}},{"type":"Feature","properties":{"code":"seacom","name":"Mumbai","featureType":"landing-point"},"geometry":{"type":"Point","coordinates":[72.88,19.08]}},{"type":"Feature","properties":{"code":"seacom","name":"Mombasa","featureType":"landing-point"},"geometry":{"type":"Point","coordinates":[39.66,-4.04]}},{"type":"Feature","properties":{"code":"seacom","name":"Dar es Salaam","featureType":"landing-point"},"geometry":{"type":"Point","coordinates":[39.28,-6.79]}},{"type":"Feature","properties":{"code":"seacom","name":"Maputo","featureType":"landing-point"},"geometry":{"type":"Point","coordinates":[32.57,-25.97]}},{"type":"Feature","properties":{"code":"seacom","name":"Mtunzini","featureType":"landing-point"},"geometry":{"type":"Point","coordinates":[31.75,-28.95]}}]}
