{"type":"FeatureCollection","features":[{"type":"Feature","properties":{"code":"tgn-eurasia-tgnea","name":"TGN-Eurasia (TGNEA)","featureType":"cable"},"geometry":{"type":"LineString","coordinates":[[0.05,51.51],[-4.26,46.08],[-9.14,38.72],[-3.06,41.48],[2.17,41.39],[5.37,43.3],[8.93,44.41],[15.82,43.93],[22.33,42.19],[29.01,41.01],[43.36,32.78],[58.25,26.37],[72.88,19.08]]}},{"type":"Feature","properties":{"code":"tgn-eurasia-tgnea","name":"London","featureType":"landing-point"},"geometry":{"type":"Point","coordinates":[0.05,51.51]}},{"type":"Feature","properties":{"code":"tgn-eurasia-tgnea","name":"Lisbon","featureType":"landing-point"},"geometry":{"type":"Point","coordinates":[-9.14,38.72]}},{"type":"Feature","properties":{"code":"tgn-eurasia-tgnea","name":"Barcelona","featureType":"landing-point"},"geometry":{"type":"Point","coordinates":[2.17,41.39]}},{"type":"Feature","properties":{"code":"tgn-eurasia-tgnea","name":"Marseille","featureType":"landing-point"},"geometry":{"type":"Point","coordinates":[5.37,43.3]}},{"type":"Feature","properties":{"code":"tgn-eurasia-tgnea","name":"Genoa","featureType":"landing-point"},"geometry":{"type":"Point","coordinates":[8.93,44.41]}},{"type":"Feature","properties":{"code":"tgn-eurasia-tgnea","name":"Istanbul","featureType":"landing-point"},"geometry":{"type":"Point","coordinates":[29.01,41.01]}},{"type":"Feature","properties":{"code":"tgn-eurasia-tgnea","name":"Mumbai","featureType":"landing-point"},"geometry":{"type":"Point","coordinates":[72.88,19.08]}}]}
