{
  "type": "FeatureCollection",
  "features": [
    {
      "type": "Feature",
      "properties": {
        "code": "silk-road-land",
        "name": "Silk Road (Land)",
        "featureType": "route",
        "routeType": "land"
      },
      "geometry": {
        "type": "LineString",
        "coordinates": [
          [108.94, 34.26],
          [106.72, 35.73],
          [104.14, 36.62],
          [101.78, 36.62],
          [98.49, 39.73],
          [96.07, 39.99],
          [94.66, 40.14],
          [92.13, 40.51],
          [89.19, 42.95],
          [87.60, 43.79],
          [82.95, 41.73],
          [79.92, 40.51],
          [75.99, 39.47],
          [72.34, 40.53],
          [69.28, 41.31],
          [66.96, 39.65],
          [64.42, 39.77],
          [62.19, 37.59],
          [59.56, 36.30],
          [57.33, 36.27],
          [53.69, 35.69],
          [51.39, 35.70],
          [48.52, 35.56],
          [46.99, 35.47],
          [44.37, 33.31],
          [41.01, 34.33],
          [38.77, 34.80],
          [36.29, 36.20],
          [35.51, 38.74],
          [33.43, 39.93],
          [30.70, 40.21],
          [29.01, 41.01]
        ]
      }
    },
    {
      "type": "Feature",
      "properties": { "code": "silk-road-land", "name": "Chang'an (Xi'an)", "featureType": "waypoint" },
      "geometry": { "type": "Point", "coordinates": [108.94, 34.26] }
    },
    {
      "type": "Feature",
      "properties": { "code": "silk-road-land", "name": "Lanzhou", "featureType": "waypoint" },
      "geometry": { "type": "Point", "coordinates": [103.83, 36.06] }
    },
    {
      "type": "Feature",
      "properties": { "code": "silk-road-land", "name": "Dunhuang", "featureType": "waypoint" },
      "geometry": { "type": "Point", "coordinates": [94.66, 40.14] }
    },
    {
      "type": "Feature",
      "properties": { "code": "silk-road-land", "name": "Kashgar", "featureType": "waypoint" },
      "geometry": { "type": "Point", "coordinates": [75.99, 39.47] }
    },
    {
      "type": "Feature",
      "properties": { "code": "silk-road-land", "name": "Samarkand", "featureType": "waypoint" },
      "geometry": { "type": "Point", "coordinates": [66.96, 39.65] }
    },
    {
      "type": "Feature",
      "properties": { "code": "silk-road-land", "name": "Bukhara", "featureType": "waypoint" },
      "geometry": { "type": "Point", "coordinates": [64.42, 39.77] }
    },
    {
      "type": "Feature",
      "properties": { "code": "silk-road-land", "name": "Merv", "featureType": "waypoint" },
      "geometry": { "type": "Point", "coordinates": [62.19, 37.59] }
    },
    {
      "type": "Feature",
      "properties": { "code": "silk-road-land", "name": "Baghdad", "featureType": "waypoint" },
      "geometry": { "type": "Point", "coordinates": [44.37, 33.31] }
    },
    {
      "type": "Feature",
      "properties": { "code": "silk-road-land", "name": "Palmyra", "featureType": "waypoint" },
      "geometry": { "type": "Point", "coordinates": [38.27, 34.55] }
    },
    {
      "type": "Feature",
      "properties": { "code": "silk-road-land", "name": "Antioch", "featureType": "waypoint" },
      "geometry": { "type": "Point", "coordinates": [36.16, 36.20] }
    },
    {
      "type": "Feature",
      "properties": { "code": "silk-road-land", "name": "Constantinople", "featureType": "waypoint" },
      "geometry": { "type": "Point", "coordinates": [29.01, 41.01] }
    }
  ]
}
