{
  "type": "FeatureCollection",
  "features": [
    {
      "type": "Feature",
      "properties": {
        "code": "incense-route",
        "name": "Incense Route",
        "featureType": "route",
        "routeType": "land"
      },
      "geometry": {
        "type": "LineString",
        "coordinates": [
          [54.09, 17.02],
          [51.17, 16.21],
          [48.49, 15.35],
          [46.57, 14.79],
          [45.33, 15.33],
          [44.21, 15.36],
          [44.72, 17.42],
          [44.20, 19.50],
          [43.88, 21.39],
          [42.68, 23.52],
          [40.41, 26.42],
          [38.79, 28.38],
          [37.52, 29.53],
          [36.33, 30.33],
          [35.48, 30.99],
          [34.47, 31.50]
        ]
      }
    },
    {
      "type": "Feature",
      "properties": { "code": "incense-route", "name": "Dhofar", "featureType": "waypoint" },
      "geometry": { "type": "Point", "coordinates": [54.09, 17.02] }
    },
    {
      "type": "Feature",
      "properties": { "code": "incense-route", "name": "Shabwa", "featureType": "waypoint" },
      "geometry": { "type": "Point", "coordinates": [46.57, 14.79] }
    },
    {
      "type": "Feature",
      "properties": { "code": "incense-route", "name": "Marib", "featureType": "waypoint" },
      "geometry": { "type": "Point", "coordinates": [45.33, 15.33] }
    },
    {
      "type": "Feature",
      "properties": { "code": "incense-route", "name": "Najran", "featureType": "waypoint" },
      "geometry": { "type": "Point", "coordinates": [44.21, 17.49] }
    },
    {
      "type": "Feature",
      "properties": { "code": "incense-route", "name": "Medina", "featureType": "waypoint" },
      "geometry": { "type": "Point", "coordinates": [39.61, 24.47] }
    },
    {
      "type": "Feature",
      "properties": { "code": "incense-route", "name": "Petra", "featureType": "waypoint" },
      "geometry": { "type": "Point", "coordinates": [35.48, 30.33] }
    },
    {
      "type": "Feature",
      "properties": { "code": "incense-route", "name": "Gaza", "featureType": "waypoint" },
      "geometry": { "type": "Point", "coordinates": [34.47, 31.50] }
    }
  ]
}
